[{"id":"11","clave_entidad":"11","nombre_entidad":"Guanajuato","clave_municipio":"0","nombre_municipio":"todo el estado","clave_inegi":"11000","nombre_inegi":"","minx":"-102.096","miny":"19.9239","maxx":"-99.7047","maxy":"21.8372","lat":"20.88055610656738","lng":"-100.90013885498047"},{"id":"384","clave_entidad":"11","nombre_entidad":"Guanajuato","clave_municipio":"1","nombre_municipio":"Abasolo","clave_inegi":"11001","nombre_inegi":"","minx":"-101.637","miny":"20.315","maxx":"-101.372","maxy":"20.7497","lat":"20.532361030578613","lng":"-101.50416564941406"},{"id":"385","clave_entidad":"11","nombre_entidad":"Guanajuato","clave_municipio":"2","nombre_municipio":"Acambaro","clave_inegi":"11002","nombre_inegi":"","minx":"-101.001","miny":"19.9253","maxx":"-100.578","maxy":"20.2222","lat":"20.073749542236328","lng":"-100.78930664062499"},{"id":"386","clave_entidad":"11","nombre_entidad":"Guanajuato","clave_municipio":"3","nombre_municipio":"San Miguel de Allende","clave_inegi":"11003","nombre_inegi":"","minx":"-101.056","miny":"20.7289","maxx":"-100.503","maxy":"21.1061","lat":"20.91750049591064","lng":"-100.77916717529295"},{"id":"387","clave_entidad":"11","nombre_entidad":"Guanajuato","clave_municipio":"4","nombre_municipio":"Apaseo el Alto","clave_inegi":"11004","nombre_inegi":"","minx":"-100.689","miny":"20.3289","maxx":"-100.476","maxy":"20.5336","lat":"20.43124961853027","lng":"-100.58222198486327"},{"id":"388","clave_entidad":"11","nombre_entidad":"Guanajuato","clave_municipio":"5","nombre_municipio":"Apaseo el Grande","clave_inegi":"11005","nombre_inegi":"","minx":"-100.761","miny":"20.4847","maxx":"-100.485","maxy":"20.6981","lat":"20.591388702392578","lng":"-100.62277984619139"},{"id":"389","clave_entidad":"11","nombre_entidad":"Guanajuato","clave_municipio":"6","nombre_municipio":"Atarjea","clave_inegi":"11006","nombre_inegi":"","minx":"-99.8797","miny":"21.1697","maxx":"-99.7047","maxy":"21.3944","lat":"21.282082557678223","lng":"-99.79222106933594"},{"id":"390","clave_entidad":"11","nombre_entidad":"Guanajuato","clave_municipio":"7","nombre_municipio":"Celaya","clave_inegi":"11007","nombre_inegi":"","minx":"-100.91","miny":"20.3628","maxx":"-100.662","maxy":"20.6778","lat":"20.520277976989746","lng":"-100.78610992431642"},{"id":"391","clave_entidad":"11","nombre_entidad":"Guanajuato","clave_municipio":"8","nombre_municipio":"Manuel Doblado","clave_inegi":"11008","nombre_inegi":"","minx":"-102.041","miny":"20.555","maxx":"-101.687","maxy":"20.8314","lat":"20.69319438934326","lng":"-101.8638916015625"},{"id":"392","clave_entidad":"11","nombre_entidad":"Guanajuato","clave_municipio":"9","nombre_municipio":"Comonfort","clave_inegi":"11009","nombre_inegi":"","minx":"-100.967","miny":"20.6539","maxx":"-100.634","maxy":"20.8183","lat":"20.73611068725586","lng":"-100.80027770996094"},{"id":"393","clave_entidad":"11","nombre_entidad":"Guanajuato","clave_municipio":"10","nombre_municipio":"Coroneo","clave_inegi":"11010","nombre_inegi":"","minx":"-100.419","miny":"20.15","maxx":"-100.336","maxy":"20.2786","lat":"20.214304924011234","lng":"-100.37750244140625"},{"id":"394","clave_entidad":"11","nombre_entidad":"Guanajuato","clave_municipio":"11","nombre_municipio":"Cortazar","clave_inegi":"11011","nombre_inegi":"","minx":"-101.044","miny":"20.3386","maxx":"-100.836","maxy":"20.5136","lat":"20.426111221313473","lng":"-100.93986129760742"},{"id":"395","clave_entidad":"11","nombre_entidad":"Guanajuato","clave_municipio":"12","nombre_municipio":"Cueramaro","clave_inegi":"11012","nombre_inegi":"","minx":"-101.769","miny":"20.5308","maxx":"-101.578","maxy":"20.6958","lat":"20.613333702087402","lng":"-101.67388916015625"},{"id":"396","clave_entidad":"11","nombre_entidad":"Guanajuato","clave_municipio":"13","nombre_municipio":"Doctor Mora","clave_inegi":"11013","nombre_inegi":"","minx":"-100.471","miny":"21.0822","maxx":"-100.246","maxy":"21.2031","lat":"21.14263916015625","lng":"-100.35833358764648"},{"id":"397","clave_entidad":"11","nombre_entidad":"Guanajuato","clave_municipio":"14","nombre_municipio":"Dolores Hidalgo Cuna de la Independencia Nacional","clave_inegi":"11014","nombre_inegi":"","minx":"-101.143","miny":"20.8894","maxx":"-100.654","maxy":"21.3469","lat":"21.11819458007812","lng":"-100.89847183227539"},{"id":"398","clave_entidad":"11","nombre_entidad":"Guanajuato","clave_municipio":"15","nombre_municipio":"Guanajuato","clave_inegi":"11015","nombre_inegi":"","minx":"-101.433","miny":"20.8361","maxx":"-101.108","maxy":"21.2056","lat":"21.020833015441895","lng":"-101.27083206176758"},{"id":"399","clave_entidad":"11","nombre_entidad":"Guanajuato","clave_municipio":"16","nombre_municipio":"Huanimaro","clave_inegi":"11016","nombre_inegi":"","minx":"-101.571","miny":"20.3147","maxx":"-101.414","maxy":"20.4056","lat":"20.360138893127438","lng":"-101.49208450317384"},{"id":"400","clave_entidad":"11","nombre_entidad":"Guanajuato","clave_municipio":"17","nombre_municipio":"Irapuato","clave_inegi":"11017","nombre_inegi":"","minx":"-101.516","miny":"20.5025","maxx":"-101.161","maxy":"20.8431","lat":"20.67277812957764","lng":"-101.33847045898439"},{"id":"401","clave_entidad":"11","nombre_entidad":"Guanajuato","clave_municipio":"18","nombre_municipio":"Jaral del Progreso","clave_inegi":"11018","nombre_inegi":"","minx":"-101.105","miny":"20.2822","maxx":"-101.007","maxy":"20.4367","lat":"20.359444618225098","lng":"-101.05611038208008"},{"id":"402","clave_entidad":"11","nombre_entidad":"Guanajuato","clave_municipio":"19","nombre_municipio":"Jerecuaro","clave_inegi":"11019","nombre_inegi":"","minx":"-100.675","miny":"19.9989","maxx":"-100.371","maxy":"20.3853","lat":"20.192083358764652","lng":"-100.52291488647461"},{"id":"403","clave_entidad":"11","nombre_entidad":"Guanajuato","clave_municipio":"20","nombre_municipio":"Leon","clave_inegi":"11020","nombre_inegi":"","minx":"-101.831","miny":"20.8836","maxx":"-101.395","maxy":"21.3258","lat":"21.10472297668457","lng":"-101.61319351196289"},{"id":"404","clave_entidad":"11","nombre_entidad":"Guanajuato","clave_municipio":"21","nombre_municipio":"Moroleon","clave_inegi":"11021","nombre_inegi":"","minx":"-101.307","miny":"20.0358","maxx":"-101.183","maxy":"20.1414","lat":"20.08861064910889","lng":"-101.24513626098634"},{"id":"405","clave_entidad":"11","nombre_entidad":"Guanajuato","clave_municipio":"22","nombre_municipio":"Ocampo","clave_inegi":"11022","nombre_inegi":"","minx":"-101.626","miny":"21.3892","maxx":"-101.313","maxy":"21.8242","lat":"21.606666564941403","lng":"-101.46958541870117"},{"id":"406","clave_entidad":"11","nombre_entidad":"Guanajuato","clave_municipio":"23","nombre_municipio":"Penjamo","clave_inegi":"11023","nombre_inegi":"","minx":"-102.096","miny":"20.1969","maxx":"-101.6","maxy":"20.6206","lat":"20.40875053405762","lng":"-101.84777832031249"},{"id":"407","clave_entidad":"11","nombre_entidad":"Guanajuato","clave_municipio":"24","nombre_municipio":"Pueblo Nuevo","clave_inegi":"11024","nombre_inegi":"","minx":"-101.413","miny":"20.505","maxx":"-101.302","maxy":"20.5853","lat":"20.545138359069824","lng":"-101.35777664184569"},{"id":"408","clave_entidad":"11","nombre_entidad":"Guanajuato","clave_municipio":"25","nombre_municipio":"Purisima del Rincon","clave_inegi":"11025","nombre_inegi":"","minx":"-102.079","miny":"20.7897","maxx":"-101.793","maxy":"21.1086","lat":"20.949167251586918","lng":"-101.93583297729492"},{"id":"409","clave_entidad":"11","nombre_entidad":"Guanajuato","clave_municipio":"26","nombre_municipio":"Romita","clave_inegi":"11026","nombre_inegi":"","minx":"-101.746","miny":"20.6931","maxx":"-101.455","maxy":"20.9358","lat":"20.814444541931152","lng":"-101.60041427612305"},{"id":"410","clave_entidad":"11","nombre_entidad":"Guanajuato","clave_municipio":"27","nombre_municipio":"Salamanca","clave_inegi":"11027","nombre_inegi":"","minx":"-101.305","miny":"20.4558","maxx":"-101.051","maxy":"20.8436","lat":"20.649722099304203","lng":"-101.17791748046874"},{"id":"411","clave_entidad":"11","nombre_entidad":"Guanajuato","clave_municipio":"28","nombre_municipio":"Salvatierra","clave_inegi":"11028","nombre_inegi":"","minx":"-101.044","miny":"20.02","maxx":"-100.783","maxy":"20.3442","lat":"20.182083129882812","lng":"-100.91333389282227"},{"id":"412","clave_entidad":"11","nombre_entidad":"Guanajuato","clave_municipio":"29","nombre_municipio":"San Diego de la Union","clave_inegi":"11029","nombre_inegi":"","minx":"-101.031","miny":"21.3014","maxx":"-100.607","maxy":"21.5572","lat":"21.429306030273438","lng":"-100.81930541992189"},{"id":"413","clave_entidad":"11","nombre_entidad":"Guanajuato","clave_municipio":"30","nombre_municipio":"San Felipe","clave_inegi":"11030","nombre_inegi":"","minx":"-101.643","miny":"21.1531","maxx":"-100.855","maxy":"21.8372","lat":"21.495139122009277","lng":"-101.24930572509767"},{"id":"414","clave_entidad":"11","nombre_entidad":"Guanajuato","clave_municipio":"31","nombre_municipio":"San Francisco del Rincon","clave_inegi":"11031","nombre_inegi":"","minx":"-101.896","miny":"20.7964","maxx":"-101.675","maxy":"21.0481","lat":"20.922222137451172","lng":"-101.78541564941405"},{"id":"415","clave_entidad":"11","nombre_entidad":"Guanajuato","clave_municipio":"32","nombre_municipio":"San Jose Iturbide","clave_inegi":"11032","nombre_inegi":"","minx":"-100.528","miny":"20.8956","maxx":"-100.27","maxy":"21.1142","lat":"21.004860877990723","lng":"-100.39902877807617"},{"id":"416","clave_entidad":"11","nombre_entidad":"Guanajuato","clave_municipio":"33","nombre_municipio":"San Luis de la Paz","clave_inegi":"11033","nombre_inegi":"","minx":"-100.705","miny":"21.0775","maxx":"-100.216","maxy":"21.6797","lat":"21.37861061096191","lng":"-100.46027755737305"},{"id":"417","clave_entidad":"11","nombre_entidad":"Guanajuato","clave_municipio":"34","nombre_municipio":"Santa Catarina","clave_inegi":"11034","nombre_inegi":"","minx":"-100.116","miny":"21.0828","maxx":"-100.017","maxy":"21.2136","lat":"21.148194313049316","lng":"-100.06639099121094"},{"id":"418","clave_entidad":"11","nombre_entidad":"Guanajuato","clave_municipio":"35","nombre_municipio":"Santa Cruz de Juventino Rosas","clave_inegi":"11035","nombre_inegi":"","minx":"-101.085","miny":"20.5569","maxx":"-100.877","maxy":"20.8031","lat":"20.679999351501465","lng":"-100.98111343383789"},{"id":"419","clave_entidad":"11","nombre_entidad":"Guanajuato","clave_municipio":"36","nombre_municipio":"Santiago Maravatio","clave_inegi":"11036","nombre_inegi":"","minx":"-101.028","miny":"20.1217","maxx":"-100.96","maxy":"20.2069","lat":"20.164304733276364","lng":"-100.99416732788086"},{"id":"420","clave_entidad":"11","nombre_entidad":"Guanajuato","clave_municipio":"37","nombre_municipio":"Silao","clave_inegi":"11037","nombre_inegi":"","minx":"-101.579","miny":"20.8069","maxx":"-101.333","maxy":"21.1356","lat":"20.9712495803833","lng":"-101.45639038085938"},{"id":"421","clave_entidad":"11","nombre_entidad":"Guanajuato","clave_municipio":"38","nombre_municipio":"Tarandacuao","clave_inegi":"11038","nombre_inegi":"","minx":"-100.582","miny":"19.9239","maxx":"-100.466","maxy":"20.0706","lat":"19.99722194671631","lng":"-100.52444458007812"},{"id":"422","clave_entidad":"11","nombre_entidad":"Guanajuato","clave_municipio":"39","nombre_municipio":"Tarimoro","clave_inegi":"11039","nombre_inegi":"","minx":"-100.836","miny":"20.1792","maxx":"-100.659","maxy":"20.3986","lat":"20.288888931274418","lng":"-100.74777984619139"},{"id":"423","clave_entidad":"11","nombre_entidad":"Guanajuato","clave_municipio":"40","nombre_municipio":"Tierra Blanca","clave_inegi":"11040","nombre_inegi":"","minx":"-100.287","miny":"20.9322","maxx":"-100.031","maxy":"21.1319","lat":"21.032083511352536","lng":"-100.15888595581055"},{"id":"424","clave_entidad":"11","nombre_entidad":"Guanajuato","clave_municipio":"41","nombre_municipio":"Uriangato","clave_inegi":"11041","nombre_inegi":"","minx":"-101.202","miny":"20.0406","maxx":"-101.092","maxy":"20.1792","lat":"20.109861373901364","lng":"-101.14722061157227"},{"id":"425","clave_entidad":"11","nombre_entidad":"Guanajuato","clave_municipio":"42","nombre_municipio":"Valle de Santiago","clave_inegi":"11042","nombre_inegi":"","minx":"-101.456","miny":"20.2589","maxx":"-101.092","maxy":"20.5356","lat":"20.397221565246582","lng":"-101.27416610717773"},{"id":"426","clave_entidad":"11","nombre_entidad":"Guanajuato","clave_municipio":"43","nombre_municipio":"Victoria","clave_inegi":"11043","nombre_inegi":"","minx":"-100.356","miny":"21.1683","maxx":"-100.088","maxy":"21.6475","lat":"21.40791606903076","lng":"-100.22180557250978"},{"id":"427","clave_entidad":"11","nombre_entidad":"Guanajuato","clave_municipio":"44","nombre_municipio":"Villagran","clave_inegi":"11044","nombre_inegi":"","minx":"-101.084","miny":"20.5033","maxx":"-100.887","maxy":"20.5808","lat":"20.542083740234375","lng":"-100.98596954345703"},{"id":"428","clave_entidad":"11","nombre_entidad":"Guanajuato","clave_municipio":"45","nombre_municipio":"Xichu","clave_inegi":"11045","nombre_inegi":"","minx":"-100.143","miny":"21.1892","maxx":"-99.7856","maxy":"21.5239","lat":"21.356528282165527","lng":"-99.96402740478516"},{"id":"429","clave_entidad":"11","nombre_entidad":"Guanajuato","clave_municipio":"46","nombre_municipio":"Yuriria","clave_inegi":"11046","nombre_inegi":"","minx":"-101.401","miny":"20.0336","maxx":"-101.012","maxy":"20.2911","lat":"20.16236114501953","lng":"-101.20680618286133"}]