[{"id":"15","clave_entidad":"15","nombre_entidad":"Mexico","clave_municipio":"0","nombre_municipio":"todo el estado","clave_inegi":"15000","nombre_inegi":"","minx":"-100.603","miny":"18.3731","maxx":"-98.6189","maxy":"20.2736","lat":"19.323333740234375","lng":"-99.61083221435545"},{"id":"720","clave_entidad":"15","nombre_entidad":"Mexico","clave_municipio":"1","nombre_municipio":"Acambay","clave_inegi":"15001","nombre_inegi":"","minx":"-100.063","miny":"19.8511","maxx":"-99.7197","maxy":"20.0719","lat":"19.961527824401855","lng":"-99.8912467956543"},{"id":"721","clave_entidad":"15","nombre_entidad":"Mexico","clave_municipio":"2","nombre_municipio":"Acolman","clave_inegi":"15002","nombre_inegi":"","minx":"-98.9764","miny":"19.6067","maxx":"-98.8622","maxy":"19.6775","lat":"19.642083168029785","lng":"-98.91930389404297"},{"id":"722","clave_entidad":"15","nombre_entidad":"Mexico","clave_municipio":"3","nombre_municipio":"Aculco","clave_inegi":"15003","nombre_inegi":"","minx":"-99.975","miny":"20.0169","maxx":"-99.7003","maxy":"20.2578","lat":"20.13736152648926","lng":"-99.83763885498047"},{"id":"723","clave_entidad":"15","nombre_entidad":"Mexico","clave_municipio":"4","nombre_municipio":"Almoloya de Alquisiras","clave_inegi":"15004","nombre_inegi":"","minx":"-99.9269","miny":"18.7444","maxx":"-99.7858","maxy":"18.905","lat":"18.824722290039062","lng":"-99.85638809204102"},{"id":"724","clave_entidad":"15","nombre_entidad":"Mexico","clave_municipio":"5","nombre_municipio":"Almoloya de Juarez","clave_inegi":"15005","nombre_inegi":"","minx":"-99.9336","miny":"19.2922","maxx":"-99.7289","maxy":"19.5394","lat":"19.415833473205566","lng":"-99.83124923706055"},{"id":"725","clave_entidad":"15","nombre_entidad":"Mexico","clave_municipio":"6","nombre_municipio":"Almoloya del Rio","clave_inegi":"15006","nombre_inegi":"","minx":"-99.4886","miny":"19.1511","maxx":"-99.4672","maxy":"19.1586","lat":"19.154861450195312","lng":"-99.4779167175293"},{"id":"726","clave_entidad":"15","nombre_entidad":"Mexico","clave_municipio":"7","nombre_municipio":"Amanalco","clave_inegi":"15007","nombre_inegi":"","minx":"-100.08","miny":"19.19","maxx":"-99.9197","maxy":"19.3219","lat":"19.255972862243652","lng":"-99.99986267089842"},{"id":"727","clave_entidad":"15","nombre_entidad":"Mexico","clave_municipio":"8","nombre_municipio":"Amatepec","clave_inegi":"15008","nombre_inegi":"","minx":"-100.475","miny":"18.6203","maxx":"-100.092","maxy":"18.8006","lat":"18.710416793823246","lng":"-100.28375244140626"},{"id":"728","clave_entidad":"15","nombre_entidad":"Mexico","clave_municipio":"9","nombre_municipio":"Amecameca","clave_inegi":"15009","nombre_inegi":"","minx":"-98.8125","miny":"19.0619","maxx":"-98.6994","maxy":"19.1672","lat":"19.114583969116214","lng":"-98.75597381591797"},{"id":"729","clave_entidad":"15","nombre_entidad":"Mexico","clave_municipio":"10","nombre_municipio":"Apaxco","clave_inegi":"15010","nombre_inegi":"","minx":"-99.1978","miny":"19.9367","maxx":"-99.14","maxy":"20.0044","lat":"19.970555305480957","lng":"-99.16888809204102"},{"id":"730","clave_entidad":"15","nombre_entidad":"Mexico","clave_municipio":"11","nombre_municipio":"Atenco","clave_inegi":"15011","nombre_inegi":"","minx":"-98.9914","miny":"19.5269","maxx":"-98.9031","maxy":"19.5928","lat":"19.5598611831665","lng":"-98.94721984863281"},{"id":"731","clave_entidad":"15","nombre_entidad":"Mexico","clave_municipio":"12","nombre_municipio":"Atizapan","clave_inegi":"15012","nombre_inegi":"","minx":"-99.5028","miny":"19.1689","maxx":"-99.4764","maxy":"19.1853","lat":"19.177083015441895","lng":"-99.48958206176758"},{"id":"732","clave_entidad":"15","nombre_entidad":"Mexico","clave_municipio":"13","nombre_municipio":"Atizapan de Zaragoza","clave_inegi":"15013","nombre_inegi":"","minx":"-99.3478","miny":"19.5339","maxx":"-99.2469","maxy":"19.5836","lat":"19.55875015258789","lng":"-99.29736328125001"},{"id":"733","clave_entidad":"15","nombre_entidad":"Mexico","clave_municipio":"14","nombre_municipio":"Atlacomulco","clave_inegi":"15014","nombre_inegi":"","minx":"-99.9478","miny":"19.7547","maxx":"-99.7525","maxy":"19.8853","lat":"19.820000648498535","lng":"-99.85013961791991"},{"id":"734","clave_entidad":"15","nombre_entidad":"Mexico","clave_municipio":"15","nombre_municipio":"Atlautla","clave_inegi":"15015","nombre_inegi":"","minx":"-98.8078","miny":"18.9669","maxx":"-98.6286","maxy":"19.0833","lat":"19.025138854980472","lng":"-98.71819305419922"},{"id":"735","clave_entidad":"15","nombre_entidad":"Mexico","clave_municipio":"16","nombre_municipio":"Axapusco","clave_inegi":"15016","nombre_inegi":"","minx":"-98.8261","miny":"19.7039","maxx":"-98.6189","maxy":"19.8725","lat":"19.788193702697754","lng":"-98.72249984741211"},{"id":"736","clave_entidad":"15","nombre_entidad":"Mexico","clave_municipio":"17","nombre_municipio":"Ayapango","clave_inegi":"15017","nombre_inegi":"","minx":"-98.8361","miny":"19.1067","maxx":"-98.7736","maxy":"19.1444","lat":"19.125555038452152","lng":"-98.80486297607422"},{"id":"737","clave_entidad":"15","nombre_entidad":"Mexico","clave_municipio":"18","nombre_municipio":"Calimaya","clave_inegi":"15018","nombre_inegi":"","minx":"-99.6689","miny":"19.1378","maxx":"-99.5542","maxy":"19.2114","lat":"19.174583435058594","lng":"-99.61153030395508"},{"id":"738","clave_entidad":"15","nombre_entidad":"Mexico","clave_municipio":"19","nombre_municipio":"Capulhuac","clave_inegi":"15019","nombre_inegi":"","minx":"-99.4808","miny":"19.1917","maxx":"-99.4347","maxy":"19.2422","lat":"19.216944694519043","lng":"-99.45777893066406"},{"id":"739","clave_entidad":"15","nombre_entidad":"Mexico","clave_municipio":"20","nombre_municipio":"Coacalco de Berriozabal","clave_inegi":"15020","nombre_inegi":"","minx":"-99.1006","miny":"19.6103","maxx":"-99.0931","maxy":"19.6333","lat":"19.621805191040036","lng":"-99.09680557250978"},{"id":"740","clave_entidad":"15","nombre_entidad":"Mexico","clave_municipio":"21","nombre_municipio":"Coatepec Harinas","clave_inegi":"15021","nombre_inegi":"","minx":"-99.8686","miny":"18.8303","maxx":"-99.7247","maxy":"19.0669","lat":"18.948611259460453","lng":"-99.79666900634764"},{"id":"741","clave_entidad":"15","nombre_entidad":"Mexico","clave_municipio":"22","nombre_municipio":"Cocotitlan","clave_inegi":"15022","nombre_inegi":"","minx":"-98.8756","miny":"19.2133","maxx":"-98.8353","maxy":"19.2472","lat":"19.23027801513672","lng":"-98.85541915893553"},{"id":"742","clave_entidad":"15","nombre_entidad":"Mexico","clave_municipio":"23","nombre_municipio":"Coyotepec","clave_inegi":"15023","nombre_inegi":"","minx":"-99.2408","miny":"19.7756","maxx":"-99.1886","maxy":"19.8078","lat":"19.791666030883793","lng":"-99.21472549438475"},{"id":"743","clave_entidad":"15","nombre_entidad":"Mexico","clave_municipio":"24","nombre_municipio":"Cuautitlan","clave_inegi":"15024","nombre_inegi":"","minx":"-99.1967","miny":"19.6669","maxx":"-99.1228","maxy":"19.7583","lat":"19.712638854980472","lng":"-99.15972137451173"},{"id":"744","clave_entidad":"15","nombre_entidad":"Mexico","clave_municipio":"25","nombre_municipio":"Chalco","clave_inegi":"15025","nombre_inegi":"","minx":"-98.9589","miny":"19.1986","maxx":"-98.7611","maxy":"19.3044","lat":"19.25152778625488","lng":"-98.8599967956543"},{"id":"745","clave_entidad":"15","nombre_entidad":"Mexico","clave_municipio":"26","nombre_municipio":"Chapa de Mota","clave_inegi":"15026","nombre_inegi":"","minx":"-99.6567","miny":"19.7486","maxx":"-99.4347","maxy":"19.8931","lat":"19.82083320617676","lng":"-99.54569625854491"},{"id":"746","clave_entidad":"15","nombre_entidad":"Mexico","clave_municipio":"27","nombre_municipio":"Chapultepec","clave_inegi":"15027","nombre_inegi":"","minx":"-99.5736","miny":"19.1944","maxx":"-99.5447","maxy":"19.2161","lat":"19.20527744293213","lng":"-99.55916595458983"},{"id":"747","clave_entidad":"15","nombre_entidad":"Mexico","clave_municipio":"28","nombre_municipio":"Chiautla","clave_inegi":"15028","nombre_inegi":"","minx":"-98.9003","miny":"19.54","maxx":"-98.8711","maxy":"19.6028","lat":"19.571389198303223","lng":"-98.88569259643555"},{"id":"748","clave_entidad":"15","nombre_entidad":"Mexico","clave_municipio":"29","nombre_municipio":"Chicoloapan","clave_inegi":"15029","nombre_inegi":"","minx":"-98.9011","miny":"19.3825","maxx":"-98.8542","maxy":"19.4278","lat":"19.40513896942139","lng":"-98.87763595581055"},{"id":"749","clave_entidad":"15","nombre_entidad":"Mexico","clave_municipio":"30","nombre_municipio":"Chiconcuac","clave_inegi":"15030","nombre_inegi":"","minx":"-98.8942","miny":"19.5425","maxx":"-98.8925","maxy":"19.5583","lat":"19.550415992736816","lng":"-98.89333343505861"},{"id":"750","clave_entidad":"15","nombre_entidad":"Mexico","clave_municipio":"31","nombre_municipio":"Chimalhuacan","clave_inegi":"15031","nombre_inegi":"","minx":"-98.9756","miny":"19.3911","maxx":"-98.9542","maxy":"19.4483","lat":"19.41972255706787","lng":"-98.96486282348633"},{"id":"751","clave_entidad":"15","nombre_entidad":"Mexico","clave_municipio":"32","nombre_municipio":"Donato Guerra","clave_inegi":"15032","nombre_inegi":"","minx":"-100.311","miny":"19.2433","maxx":"-100.073","maxy":"19.3636","lat":"19.303472518920902","lng":"-100.19208145141603"},{"id":"752","clave_entidad":"15","nombre_entidad":"Mexico","clave_municipio":"33","nombre_municipio":"Ecatepec de Morelos","clave_inegi":"15033","nombre_inegi":"","minx":"-99.0833","miny":"19.5578","maxx":"-99.0119","maxy":"19.6131","lat":"19.585416793823246","lng":"-99.04764175415039"},{"id":"753","clave_entidad":"15","nombre_entidad":"Mexico","clave_municipio":"34","nombre_municipio":"Ecatzingo","clave_inegi":"15034","nombre_inegi":"","minx":"-98.7906","miny":"18.9411","maxx":"-98.7333","maxy":"18.9914","lat":"18.966249465942386","lng":"-98.76194381713867"},{"id":"754","clave_entidad":"15","nombre_entidad":"Mexico","clave_municipio":"35","nombre_municipio":"Huehuetoca","clave_inegi":"15035","nombre_inegi":"","minx":"-99.3353","miny":"19.7764","maxx":"-99.1814","maxy":"19.8825","lat":"19.82944393157959","lng":"-99.25833511352538"},{"id":"755","clave_entidad":"15","nombre_entidad":"Mexico","clave_municipio":"36","nombre_municipio":"Hueypoxtla","clave_inegi":"15036","nombre_inegi":"","minx":"-99.0767","miny":"19.8689","maxx":"-98.9556","maxy":"20.0214","lat":"19.945138931274418","lng":"-99.01611328125"},{"id":"756","clave_entidad":"15","nombre_entidad":"Mexico","clave_municipio":"37","nombre_municipio":"Huixquilucan","clave_inegi":"15037","nombre_inegi":"","minx":"-99.3911","miny":"19.31","maxx":"-99.2767","maxy":"19.4306","lat":"19.370277404785156","lng":"-99.33388900756836"},{"id":"757","clave_entidad":"15","nombre_entidad":"Mexico","clave_municipio":"38","nombre_municipio":"Isidro Fabela","clave_inegi":"15038","nombre_inegi":"","minx":"-99.4892","miny":"19.5314","maxx":"-99.3322","maxy":"19.5903","lat":"19.56083393096924","lng":"-99.41069412231447"},{"id":"758","clave_entidad":"15","nombre_entidad":"Mexico","clave_municipio":"39","nombre_municipio":"Ixtapaluca","clave_inegi":"15039","nombre_inegi":"","minx":"-98.9261","miny":"19.2814","maxx":"-98.6611","maxy":"19.3925","lat":"19.33694458007812","lng":"-98.79360961914062"},{"id":"759","clave_entidad":"15","nombre_entidad":"Mexico","clave_municipio":"40","nombre_municipio":"Ixtapan de la Sal","clave_inegi":"15040","nombre_inegi":"","minx":"-99.7483","miny":"18.7842","maxx":"-99.6392","maxy":"18.9017","lat":"18.842916488647457","lng":"-99.69375228881836"},{"id":"760","clave_entidad":"15","nombre_entidad":"Mexico","clave_municipio":"41","nombre_municipio":"Ixtapan del Oro","clave_inegi":"15041","nombre_inegi":"","minx":"-100.307","miny":"19.2108","maxx":"-100.261","maxy":"19.3156","lat":"19.26319408416748","lng":"-100.28430557250978"},{"id":"761","clave_entidad":"15","nombre_entidad":"Mexico","clave_municipio":"42","nombre_municipio":"Ixtlahuaca","clave_inegi":"15042","nombre_inegi":"","minx":"-99.9039","miny":"19.485","maxx":"-99.7014","maxy":"19.715","lat":"19.600000381469723","lng":"-99.80263900756836"},{"id":"762","clave_entidad":"15","nombre_entidad":"Mexico","clave_municipio":"43","nombre_municipio":"Xalatlaco","clave_inegi":"15043","nombre_inegi":"","minx":"-99.4514","miny":"19.1372","maxx":"-99.2886","maxy":"19.1889","lat":"19.163055419921875","lng":"-99.36999893188477"},{"id":"763","clave_entidad":"15","nombre_entidad":"Mexico","clave_municipio":"44","nombre_municipio":"Jaltenco","clave_inegi":"15044","nombre_inegi":"","minx":"-99.0944","miny":"19.6619","maxx":"-99.0689","maxy":"19.7486","lat":"19.70527839660645","lng":"-99.0816650390625"},{"id":"764","clave_entidad":"15","nombre_entidad":"Mexico","clave_municipio":"45","nombre_municipio":"Jilotepec","clave_inegi":"15045","nombre_inegi":"","minx":"-99.6989","miny":"19.8869","maxx":"-99.4622","maxy":"20.1564","lat":"20.021666526794437","lng":"-99.5805549621582"},{"id":"765","clave_entidad":"15","nombre_entidad":"Mexico","clave_municipio":"46","nombre_municipio":"Jilotzingo","clave_inegi":"15046","nombre_inegi":"","minx":"-99.4267","miny":"19.4917","maxx":"-99.3364","maxy":"19.5456","lat":"19.518610954284668","lng":"-99.38152694702147"},{"id":"766","clave_entidad":"15","nombre_entidad":"Mexico","clave_municipio":"47","nombre_municipio":"Jiquipilco","clave_inegi":"15047","nombre_inegi":"","minx":"-99.7242","miny":"19.5114","maxx":"-99.5656","maxy":"19.6856","lat":"19.598472595214844","lng":"-99.64485931396484"},{"id":"767","clave_entidad":"15","nombre_entidad":"Mexico","clave_municipio":"48","nombre_municipio":"Jocotitlan","clave_inegi":"15048","nombre_inegi":"","minx":"-100.015","miny":"19.6217","maxx":"-99.6844","maxy":"19.7808","lat":"19.70125007629395","lng":"-99.84972381591795"},{"id":"768","clave_entidad":"15","nombre_entidad":"Mexico","clave_municipio":"49","nombre_municipio":"Joquicingo","clave_inegi":"15049","nombre_inegi":"","minx":"-99.5572","miny":"19.0236","maxx":"-99.4792","maxy":"19.1164","lat":"19.069999694824222","lng":"-99.51819229125977"},{"id":"769","clave_entidad":"15","nombre_entidad":"Mexico","clave_municipio":"50","nombre_municipio":"Juchitepec","clave_inegi":"15050","nombre_inegi":"","minx":"-98.9444","miny":"19.075","maxx":"-98.8381","maxy":"19.1283","lat":"19.10166740417481","lng":"-98.89125061035158"},{"id":"770","clave_entidad":"15","nombre_entidad":"Mexico","clave_municipio":"51","nombre_municipio":"Lerma","clave_inegi":"15051","nombre_inegi":"","minx":"-99.5425","miny":"19.2292","maxx":"-99.3875","maxy":"19.4242","lat":"19.3266658782959","lng":"-99.46500015258789"},{"id":"771","clave_entidad":"15","nombre_entidad":"Mexico","clave_municipio":"52","nombre_municipio":"Malinalco","clave_inegi":"15052","nombre_inegi":"","minx":"-99.5456","miny":"18.7678","maxx":"-99.4322","maxy":"18.9983","lat":"18.883055686950687","lng":"-99.48888778686523"},{"id":"772","clave_entidad":"15","nombre_entidad":"Mexico","clave_municipio":"53","nombre_municipio":"Melchor Ocampo","clave_inegi":"15053","nombre_inegi":"","minx":"-99.1564","miny":"19.7003","maxx":"-99.1108","maxy":"19.7247","lat":"19.71249961853027","lng":"-99.13360977172852"},{"id":"773","clave_entidad":"15","nombre_entidad":"Mexico","clave_municipio":"54","nombre_municipio":"Metepec","clave_inegi":"15054","nombre_inegi":"","minx":"-99.6336","miny":"19.2178","maxx":"-99.5272","maxy":"19.28","lat":"19.24888896942139","lng":"-99.58041763305664"},{"id":"774","clave_entidad":"15","nombre_entidad":"Mexico","clave_municipio":"55","nombre_municipio":"Mexicaltzingo","clave_inegi":"15055","nombre_inegi":"","minx":"-99.6053","miny":"19.2061","maxx":"-99.5644","maxy":"19.2158","lat":"19.210972785949707","lng":"-99.5848617553711"},{"id":"775","clave_entidad":"15","nombre_entidad":"Mexico","clave_municipio":"56","nombre_municipio":"Morelos","clave_inegi":"15056","nombre_inegi":"","minx":"-99.7433","miny":"19.6369","maxx":"-99.5436","maxy":"19.8322","lat":"19.73458290100098","lng":"-99.64347076416016"},{"id":"776","clave_entidad":"15","nombre_entidad":"Mexico","clave_municipio":"57","nombre_municipio":"Naucalpan de Juarez","clave_inegi":"15057","nombre_inegi":"","minx":"-99.3967","miny":"19.4225","maxx":"-99.2378","maxy":"19.5339","lat":"19.478195190429688","lng":"-99.31722259521483"},{"id":"777","clave_entidad":"15","nombre_entidad":"Mexico","clave_municipio":"58","nombre_municipio":"Nezahualcoyotl","clave_inegi":"15058","nombre_inegi":"","minx":"-99.0472","miny":"19.4","maxx":"-98.9883","maxy":"19.4489","lat":"19.424444198608402","lng":"-99.01778030395506"},{"id":"778","clave_entidad":"15","nombre_entidad":"Mexico","clave_municipio":"59","nombre_municipio":"Nextlalpan","clave_inegi":"15059","nombre_inegi":"","minx":"-99.1269","miny":"19.6869","maxx":"-99.0383","maxy":"19.7633","lat":"19.725139617919922","lng":"-99.08263778686522"},{"id":"779","clave_entidad":"15","nombre_entidad":"Mexico","clave_municipio":"60","nombre_municipio":"Nicolas Romero","clave_inegi":"15060","nombre_inegi":"","minx":"-99.4447","miny":"19.5794","maxx":"-99.2894","maxy":"19.7033","lat":"19.641388893127438","lng":"-99.36708450317384"},{"id":"780","clave_entidad":"15","nombre_entidad":"Mexico","clave_municipio":"61","nombre_municipio":"Nopaltepec","clave_inegi":"15061","nombre_inegi":"","minx":"-98.7711","miny":"19.7464","maxx":"-98.6575","maxy":"19.8533","lat":"19.799860954284668","lng":"-98.71430587768555"},{"id":"781","clave_entidad":"15","nombre_entidad":"Mexico","clave_municipio":"62","nombre_municipio":"Ocoyoacac","clave_inegi":"15062","nombre_inegi":"","minx":"-99.495","miny":"19.2228","maxx":"-99.3539","maxy":"19.3003","lat":"19.26152801513672","lng":"-99.42444610595702"},{"id":"782","clave_entidad":"15","nombre_entidad":"Mexico","clave_municipio":"63","nombre_municipio":"Ocuilan","clave_inegi":"15063","nombre_inegi":"","minx":"-99.4728","miny":"18.8833","maxx":"-99.3117","maxy":"19.1075","lat":"18.995416641235348","lng":"-99.39222335815431"},{"id":"783","clave_entidad":"15","nombre_entidad":"Mexico","clave_municipio":"64","nombre_municipio":"El Oro","clave_inegi":"15064","nombre_inegi":"","minx":"-100.135","miny":"19.7297","maxx":"-99.9881","maxy":"19.8497","lat":"19.789722442626953","lng":"-100.06152725219727"},{"id":"784","clave_entidad":"15","nombre_entidad":"Mexico","clave_municipio":"65","nombre_municipio":"Otumba","clave_inegi":"15065","nombre_inegi":"","minx":"-98.8078","miny":"19.6114","maxx":"-98.6744","maxy":"19.7292","lat":"19.67027759552002","lng":"-98.74111175537111"},{"id":"785","clave_entidad":"15","nombre_entidad":"Mexico","clave_municipio":"66","nombre_municipio":"Otzoloapan","clave_inegi":"15066","nombre_inegi":"","minx":"-100.41","miny":"19.0592","maxx":"-100.213","maxy":"19.1514","lat":"19.105277061462402","lng":"-100.31138992309569"},{"id":"786","clave_entidad":"15","nombre_entidad":"Mexico","clave_municipio":"67","nombre_municipio":"Otzolotepec","clave_inegi":"15067","nombre_inegi":"","minx":"-99.6361","miny":"19.3828","maxx":"-99.4747","maxy":"19.5039","lat":"19.443333625793457","lng":"-99.55541610717773"},{"id":"787","clave_entidad":"15","nombre_entidad":"Mexico","clave_municipio":"68","nombre_municipio":"Ozumba","clave_inegi":"15068","nombre_inegi":"","minx":"-98.8367","miny":"18.9639","maxx":"-98.7936","maxy":"19.0539","lat":"19.008888244628906","lng":"-98.8151397705078"},{"id":"788","clave_entidad":"15","nombre_entidad":"Mexico","clave_municipio":"69","nombre_municipio":"Papalotla","clave_inegi":"15069","nombre_inegi":"","minx":"-98.8664","miny":"19.5506","maxx":"-98.8475","maxy":"19.5633","lat":"19.556944847106934","lng":"-98.8569450378418"},{"id":"789","clave_entidad":"15","nombre_entidad":"Mexico","clave_municipio":"70","nombre_municipio":"La Paz","clave_inegi":"15070","nombre_inegi":"","minx":"-98.98","miny":"19.3397","maxx":"-98.9039","maxy":"19.3819","lat":"19.360833168029785","lng":"-98.94194793701172"},{"id":"790","clave_entidad":"15","nombre_entidad":"Mexico","clave_municipio":"71","nombre_municipio":"Polotitlan","clave_inegi":"15071","nombre_inegi":"","minx":"-99.9311","miny":"20.1483","maxx":"-99.7044","maxy":"20.2736","lat":"20.21097183227539","lng":"-99.81777954101561"},{"id":"791","clave_entidad":"15","nombre_entidad":"Mexico","clave_municipio":"72","nombre_municipio":"Rayon","clave_inegi":"15072","nombre_inegi":"","minx":"-99.5964","miny":"19.1242","maxx":"-99.5575","maxy":"19.1547","lat":"19.139444351196286","lng":"-99.57694625854492"},{"id":"792","clave_entidad":"15","nombre_entidad":"Mexico","clave_municipio":"73","nombre_municipio":"San Antonio la Isla","clave_inegi":"15073","nombre_inegi":"","minx":"-99.5817","miny":"19.16","maxx":"-99.5203","maxy":"19.1861","lat":"19.173055648803707","lng":"-99.55097198486327"},{"id":"793","clave_entidad":"15","nombre_entidad":"Mexico","clave_municipio":"74","nombre_municipio":"San Felipe del Progreso","clave_inegi":"15074","nombre_inegi":"","minx":"-100.071","miny":"19.5464","maxx":"-99.8858","maxy":"19.7519","lat":"19.649166107177734","lng":"-99.97847366333008"},{"id":"794","clave_entidad":"15","nombre_entidad":"Mexico","clave_municipio":"75","nombre_municipio":"San Martin de las Piramides","clave_inegi":"15075","nombre_inegi":"","minx":"-98.8797","miny":"19.6381","maxx":"-98.7714","maxy":"19.76","lat":"19.69902801513672","lng":"-98.82555389404298"},{"id":"795","clave_entidad":"15","nombre_entidad":"Mexico","clave_municipio":"76","nombre_municipio":"San Mateo Atenco","clave_inegi":"15076","nombre_inegi":"","minx":"-99.5525","miny":"19.2533","maxx":"-99.5239","maxy":"19.2828","lat":"19.26805591583252","lng":"-99.53819274902345"},{"id":"796","clave_entidad":"15","nombre_entidad":"Mexico","clave_municipio":"77","nombre_municipio":"San Simon de Guerrero","clave_inegi":"15077","nombre_inegi":"","minx":"-100.111","miny":"18.9331","maxx":"-99.9839","maxy":"19.0297","lat":"18.981389045715332","lng":"-100.04750061035156"},{"id":"797","clave_entidad":"15","nombre_entidad":"Mexico","clave_municipio":"78","nombre_municipio":"Santo Tomas","clave_inegi":"15078","nombre_inegi":"","minx":"-100.369","miny":"19.1411","maxx":"-100.214","maxy":"19.2256","lat":"19.183333396911618","lng":"-100.29152679443361"},{"id":"798","clave_entidad":"15","nombre_entidad":"Mexico","clave_municipio":"79","nombre_municipio":"Soyaniquilpan de Juarez","clave_inegi":"15079","nombre_inegi":"","minx":"-99.5639","miny":"19.9911","maxx":"-99.4386","maxy":"20.0986","lat":"20.044861793518066","lng":"-99.50125122070311"},{"id":"799","clave_entidad":"15","nombre_entidad":"Mexico","clave_municipio":"80","nombre_municipio":"Sultepec","clave_inegi":"15080","nombre_inegi":"","minx":"-100.118","miny":"18.5692","maxx":"-99.8672","maxy":"18.8697","lat":"18.719444274902344","lng":"-99.9925003051758"},{"id":"800","clave_entidad":"15","nombre_entidad":"Mexico","clave_municipio":"81","nombre_municipio":"Tecamac","clave_inegi":"15081","nombre_inegi":"","minx":"-99.0422","miny":"19.65","maxx":"-98.9289","maxy":"19.795","lat":"19.72249984741211","lng":"-98.98555374145508"},{"id":"801","clave_entidad":"15","nombre_entidad":"Mexico","clave_municipio":"82","nombre_municipio":"Tejupilco","clave_inegi":"15082","nombre_inegi":"","minx":"-100.511","miny":"18.7711","maxx":"-100.019","maxy":"19.0153","lat":"18.893194198608402","lng":"-100.26514053344727"},{"id":"802","clave_entidad":"15","nombre_entidad":"Mexico","clave_municipio":"83","nombre_municipio":"Temamatla","clave_inegi":"15083","nombre_inegi":"","minx":"-98.8897","miny":"19.1778","maxx":"-98.8556","maxy":"19.2192","lat":"19.19847202301025","lng":"-98.87263870239258"},{"id":"803","clave_entidad":"15","nombre_entidad":"Mexico","clave_municipio":"84","nombre_municipio":"Temascalapa","clave_inegi":"15084","nombre_inegi":"","minx":"-98.9333","miny":"19.7478","maxx":"-98.8225","maxy":"19.8967","lat":"19.82222270965576","lng":"-98.8779182434082"},{"id":"804","clave_entidad":"15","nombre_entidad":"Mexico","clave_municipio":"85","nombre_municipio":"Temascalcingo","clave_inegi":"15085","nombre_inegi":"","minx":"-100.15","miny":"19.8197","maxx":"-99.9106","maxy":"20.0342","lat":"19.92694473266602","lng":"-100.03041458129883"},{"id":"805","clave_entidad":"15","nombre_entidad":"Mexico","clave_municipio":"86","nombre_municipio":"Temascaltepec","clave_inegi":"15086","nombre_inegi":"","minx":"-100.228","miny":"18.9978","maxx":"-99.8436","maxy":"19.1694","lat":"19.083611488342285","lng":"-100.03597259521484"},{"id":"806","clave_entidad":"15","nombre_entidad":"Mexico","clave_municipio":"87","nombre_municipio":"Temoaya","clave_inegi":"15087","nombre_inegi":"","minx":"-99.7142","miny":"19.4028","maxx":"-99.5389","maxy":"19.5222","lat":"19.462500572204593","lng":"-99.62652587890624"},{"id":"807","clave_entidad":"15","nombre_entidad":"Mexico","clave_municipio":"88","nombre_municipio":"Tenancingo","clave_inegi":"15088","nombre_inegi":"","minx":"-99.6236","miny":"18.86","maxx":"-99.5031","maxy":"19.0131","lat":"18.936528205871582","lng":"-99.56333160400389"},{"id":"808","clave_entidad":"15","nombre_entidad":"Mexico","clave_municipio":"89","nombre_municipio":"Tenango del Aire","clave_inegi":"15089","nombre_inegi":"","minx":"-98.8739","miny":"19.1317","maxx":"-98.8317","maxy":"19.1825","lat":"19.157083511352536","lng":"-98.85277557373045"},{"id":"809","clave_entidad":"15","nombre_entidad":"Mexico","clave_municipio":"90","nombre_municipio":"Tenango del Valle","clave_inegi":"15090","nombre_inegi":"","minx":"-99.6886","miny":"19.0128","maxx":"-99.5358","maxy":"19.1367","lat":"19.074722290039062","lng":"-99.61222457885742"},{"id":"810","clave_entidad":"15","nombre_entidad":"Mexico","clave_municipio":"91","nombre_municipio":"Teoloyucan","clave_inegi":"15091","nombre_inegi":"","minx":"-99.2119","miny":"19.7294","maxx":"-99.1592","maxy":"19.7803","lat":"19.754860877990723","lng":"-99.18555450439452"},{"id":"811","clave_entidad":"15","nombre_entidad":"Mexico","clave_municipio":"92","nombre_municipio":"Teotihuacan","clave_inegi":"15092","nombre_inegi":"","minx":"-98.9286","miny":"19.6575","maxx":"-98.8153","maxy":"19.7339","lat":"19.695693969726562","lng":"-98.87194442749023"},{"id":"812","clave_entidad":"15","nombre_entidad":"Mexico","clave_municipio":"93","nombre_municipio":"Tepetlaoxtoc","clave_inegi":"15093","nombre_inegi":"","minx":"-98.8561","miny":"19.5303","maxx":"-98.7136","maxy":"19.6297","lat":"19.57999992370606","lng":"-98.78485870361328"},{"id":"813","clave_entidad":"15","nombre_entidad":"Mexico","clave_municipio":"94","nombre_municipio":"Tepetlixpa","clave_inegi":"15094","nombre_inegi":"","minx":"-98.855","miny":"18.9578","maxx":"-98.8117","maxy":"19.0386","lat":"18.998193740844727","lng":"-98.83333587646486"},{"id":"814","clave_entidad":"15","nombre_entidad":"Mexico","clave_municipio":"95","nombre_municipio":"Tepotzotlan","clave_inegi":"15095","nombre_inegi":"","minx":"-99.4047","miny":"19.6533","maxx":"-99.2036","maxy":"19.7847","lat":"19.719027519226074","lng":"-99.30416870117189"},{"id":"815","clave_entidad":"15","nombre_entidad":"Mexico","clave_municipio":"96","nombre_municipio":"Tequixquiac","clave_inegi":"15096","nombre_inegi":"","minx":"-99.1681","miny":"19.8278","maxx":"-99.0911","maxy":"19.9469","lat":"19.88736152648926","lng":"-99.12958145141603"},{"id":"816","clave_entidad":"15","nombre_entidad":"Mexico","clave_municipio":"97","nombre_municipio":"Texcaltitlan","clave_inegi":"15097","nombre_inegi":"","minx":"-100.005","miny":"18.8744","maxx":"-99.8503","maxy":"19.0397","lat":"18.957083702087402","lng":"-99.92778015136719"},{"id":"817","clave_entidad":"15","nombre_entidad":"Mexico","clave_municipio":"98","nombre_municipio":"Texcalyacac","clave_inegi":"15098","nombre_inegi":"","minx":"-99.5108","miny":"19.1278","maxx":"-99.4939","maxy":"19.1414","lat":"19.13458251953125","lng":"-99.50236129760742"},{"id":"818","clave_entidad":"15","nombre_entidad":"Mexico","clave_municipio":"99","nombre_municipio":"Texcoco","clave_inegi":"15099","nombre_inegi":"","minx":"-98.9936","miny":"19.4303","maxx":"-98.7242","maxy":"19.555","lat":"19.49263858795166","lng":"-98.85889053344727"},{"id":"819","clave_entidad":"15","nombre_entidad":"Mexico","clave_municipio":"100","nombre_municipio":"Tezoyuca","clave_inegi":"15100","nombre_inegi":"","minx":"-98.96","miny":"19.5789","maxx":"-98.9039","maxy":"19.6083","lat":"19.59361076354981","lng":"-98.93194580078125"},{"id":"820","clave_entidad":"15","nombre_entidad":"Mexico","clave_municipio":"101","nombre_municipio":"Tianguistenco","clave_inegi":"15101","nombre_inegi":"","minx":"-99.5172","miny":"19.1081","maxx":"-99.3928","maxy":"19.2317","lat":"19.16986083984375","lng":"-99.45499801635742"},{"id":"821","clave_entidad":"15","nombre_entidad":"Mexico","clave_municipio":"102","nombre_municipio":"Timilpan","clave_inegi":"15102","nombre_inegi":"","minx":"-99.7778","miny":"19.82","maxx":"-99.6636","maxy":"19.9756","lat":"19.897777557373047","lng":"-99.72069549560547"},{"id":"822","clave_entidad":"15","nombre_entidad":"Mexico","clave_municipio":"103","nombre_municipio":"Tlalmanalco","clave_inegi":"15103","nombre_inegi":"","minx":"-98.8233","miny":"19.1611","maxx":"-98.7397","maxy":"19.2242","lat":"19.192639350891113","lng":"-98.78152847290039"},{"id":"823","clave_entidad":"15","nombre_entidad":"Mexico","clave_municipio":"104","nombre_municipio":"Tlalnepantla de Baz","clave_inegi":"15104","nombre_inegi":"","minx":"-99.1947","miny":"19.5367","maxx":"-99.0981","maxy":"19.5697","lat":"19.553194999694824","lng":"-99.14638900756836"},{"id":"824","clave_entidad":"15","nombre_entidad":"Mexico","clave_municipio":"105","nombre_municipio":"Tlatlaya","clave_inegi":"15105","nombre_inegi":"","minx":"-100.436","miny":"18.3731","maxx":"-100.075","maxy":"18.6647","lat":"18.518889427185062","lng":"-100.25527954101561"},{"id":"825","clave_entidad":"15","nombre_entidad":"Mexico","clave_municipio":"106","nombre_municipio":"Toluca","clave_inegi":"15106","nombre_inegi":"","minx":"-99.7467","miny":"19.1192","maxx":"-99.5425","maxy":"19.4739","lat":"19.296527862548828","lng":"-99.64458465576172"},{"id":"826","clave_entidad":"15","nombre_entidad":"Mexico","clave_municipio":"107","nombre_municipio":"Tonatico","clave_inegi":"15107","nombre_inegi":"","minx":"-99.6869","miny":"18.7414","maxx":"-99.6058","maxy":"18.8161","lat":"18.778749465942386","lng":"-99.64638900756836"},{"id":"827","clave_entidad":"15","nombre_entidad":"Mexico","clave_municipio":"108","nombre_municipio":"Tultepec","clave_inegi":"15108","nombre_inegi":"","minx":"-99.1461","miny":"19.66","maxx":"-99.1072","maxy":"19.6917","lat":"19.675833702087402","lng":"-99.12666702270508"},{"id":"828","clave_entidad":"15","nombre_entidad":"Mexico","clave_municipio":"109","nombre_municipio":"Tultitlan","clave_inegi":"15109","nombre_inegi":"","minx":"-99.1694","miny":"19.5803","maxx":"-99.0917","maxy":"19.6869","lat":"19.633611679077145","lng":"-99.13055419921875"},{"id":"829","clave_entidad":"15","nombre_entidad":"Mexico","clave_municipio":"110","nombre_municipio":"Valle de Bravo","clave_inegi":"15110","nombre_inegi":"","minx":"-100.241","miny":"19.0836","maxx":"-99.9797","maxy":"19.2658","lat":"19.174721717834473","lng":"-100.11041641235352"},{"id":"830","clave_entidad":"15","nombre_entidad":"Mexico","clave_municipio":"111","nombre_municipio":"Villa de Allende","clave_inegi":"15111","nombre_inegi":"","minx":"-100.234","miny":"19.2986","maxx":"-100.003","maxy":"19.4817","lat":"19.39013862609863","lng":"-100.11874771118164"},{"id":"831","clave_entidad":"15","nombre_entidad":"Mexico","clave_municipio":"112","nombre_municipio":"Villa del Carbon","clave_inegi":"15112","nombre_inegi":"","minx":"-99.6192","miny":"19.6483","maxx":"-99.3756","maxy":"19.8469","lat":"19.747638702392578","lng":"-99.4973602294922"},{"id":"832","clave_entidad":"15","nombre_entidad":"Mexico","clave_municipio":"113","nombre_municipio":"Villa Guerrero","clave_inegi":"15113","nombre_inegi":"","minx":"-99.7439","miny":"18.8464","maxx":"-99.6142","maxy":"19.0447","lat":"18.945555686950687","lng":"-99.67902755737305"},{"id":"833","clave_entidad":"15","nombre_entidad":"Mexico","clave_municipio":"114","nombre_municipio":"Villa Victoria","clave_inegi":"15114","nombre_inegi":"","minx":"-100.145","miny":"19.3022","maxx":"-99.8617","maxy":"19.5525","lat":"19.427360534667972","lng":"-100.00347137451172"},{"id":"834","clave_entidad":"15","nombre_entidad":"Mexico","clave_municipio":"115","nombre_municipio":"Xonacatlan","clave_inegi":"15115","nombre_inegi":"","minx":"-99.5411","miny":"19.4011","maxx":"-99.435","maxy":"19.4542","lat":"19.42763900756836","lng":"-99.48805618286131"},{"id":"835","clave_entidad":"15","nombre_entidad":"Mexico","clave_municipio":"116","nombre_municipio":"Zacazonapan","clave_inegi":"15116","nombre_inegi":"","minx":"-100.299","miny":"19.0222","maxx":"-100.239","maxy":"19.0958","lat":"19.059027671813965","lng":"-100.26888656616211"},{"id":"836","clave_entidad":"15","nombre_entidad":"Mexico","clave_municipio":"117","nombre_municipio":"Zacualpan","clave_inegi":"15117","nombre_inegi":"","minx":"-99.9406","miny":"18.5944","maxx":"-99.6992","maxy":"18.8161","lat":"18.70527744293213","lng":"-99.8198585510254"},{"id":"837","clave_entidad":"15","nombre_entidad":"Mexico","clave_municipio":"118","nombre_municipio":"Zinacantepec","clave_inegi":"15118","nombre_inegi":"","minx":"-99.8547","miny":"19.0783","maxx":"-99.7056","maxy":"19.3294","lat":"19.203888893127438","lng":"-99.7801399230957"},{"id":"838","clave_entidad":"15","nombre_entidad":"Mexico","clave_municipio":"119","nombre_municipio":"Zumpahuacan","clave_inegi":"15119","nombre_inegi":"","minx":"-99.6183","miny":"18.7267","maxx":"-99.4753","maxy":"18.9147","lat":"18.82069492340088","lng":"-99.54680633544922"},{"id":"839","clave_entidad":"15","nombre_entidad":"Mexico","clave_municipio":"120","nombre_municipio":"Zumpango","clave_inegi":"15120","nombre_inegi":"","minx":"-99.1706","miny":"19.7436","maxx":"-98.9725","maxy":"19.8708","lat":"19.807221412658688","lng":"-99.07152938842773"},{"id":"840","clave_entidad":"15","nombre_entidad":"Mexico","clave_municipio":"121","nombre_municipio":"Cuautitlan Izcalli","clave_inegi":"15121","nombre_inegi":"","minx":"-99.2828","miny":"19.6306","maxx":"-99.2114","maxy":"19.6942","lat":"19.66236114501953","lng":"-99.2470817565918"},{"id":"841","clave_entidad":"15","nombre_entidad":"Mexico","clave_municipio":"122","nombre_municipio":"Valle de Chalco Solidaridad","clave_inegi":"15122","nombre_inegi":"","minx":"-98.9719","miny":"19.2272","maxx":"-98.9389","maxy":"19.2942","lat":"19.260694503784176","lng":"-98.95541763305664"},{"id":"842","clave_entidad":"15","nombre_entidad":"Mexico","clave_municipio":"123","nombre_municipio":"Luvianos","clave_inegi":"15123","nombre_inegi":"","minx":"-100.603","miny":"18.8539","maxx":"-100.244","maxy":"19.0631","lat":"18.95847225189209","lng":"-100.4231948852539"},{"id":"843","clave_entidad":"15","nombre_entidad":"Mexico","clave_municipio":"124","nombre_municipio":"San Jose del Rincon","clave_inegi":"15124","nombre_inegi":"","minx":"-100.259","miny":"19.4889","maxx":"-100.018","maxy":"19.7517","lat":"19.620278358459473","lng":"-100.13833236694336"},{"id":"844","clave_entidad":"15","nombre_entidad":"Mexico","clave_municipio":"125","nombre_municipio":"Tonanitla","clave_inegi":"15125","nombre_inegi":"","minx":"-99.0642","miny":"19.665","maxx":"-99.0475","maxy":"19.6956","lat":"19.680277824401855","lng":"-99.05583190917969"}]