[{"id":"22","clave_entidad":"22","nombre_entidad":"Queretaro","clave_municipio":"0","nombre_municipio":"todo el estado","clave_inegi":"22000","nombre_inegi":"","minx":"-100.587","miny":"20.0317","maxx":"-99.0522","maxy":"21.6514","lat":"20.841526985168457","lng":"-99.81958389282227"},{"id":"1849","clave_entidad":"22","nombre_entidad":"Queretaro","clave_municipio":"1","nombre_municipio":"Amealco de Bonfil","clave_inegi":"22001","nombre_inegi":"","minx":"-100.27","miny":"20.0317","maxx":"-99.9433","maxy":"20.3197","lat":"20.175694465637207","lng":"-100.10652923583984"},{"id":"1850","clave_entidad":"22","nombre_entidad":"Queretaro","clave_municipio":"2","nombre_municipio":"Pinal de Amoles","clave_inegi":"22002","nombre_inegi":"","minx":"-99.7106","miny":"20.9939","maxx":"-99.4414","maxy":"21.3417","lat":"21.16777801513672","lng":"-99.5759735107422"},{"id":"1851","clave_entidad":"22","nombre_entidad":"Queretaro","clave_municipio":"3","nombre_municipio":"Arroyo Seco","clave_inegi":"22003","nombre_inegi":"","minx":"-99.7797","miny":"21.2892","maxx":"-99.4442","maxy":"21.5672","lat":"21.428194999694824","lng":"-99.61194610595702"},{"id":"1852","clave_entidad":"22","nombre_entidad":"Queretaro","clave_municipio":"4","nombre_municipio":"Cadereyta de Montes","clave_inegi":"22004","nombre_inegi":"","minx":"-99.8622","miny":"20.5656","maxx":"-99.4125","maxy":"21.0136","lat":"20.78958320617676","lng":"-99.63735961914061"},{"id":"1853","clave_entidad":"22","nombre_entidad":"Queretaro","clave_municipio":"5","nombre_municipio":"Colon","clave_inegi":"22005","nombre_inegi":"","minx":"-100.223","miny":"20.5683","maxx":"-99.9397","maxy":"20.9325","lat":"20.75041675567627","lng":"-100.08138656616211"},{"id":"1854","clave_entidad":"22","nombre_entidad":"Queretaro","clave_municipio":"6","nombre_municipio":"Corregidora","clave_inegi":"22006","nombre_inegi":"","minx":"-100.506","miny":"20.3742","maxx":"-100.372","maxy":"20.5894","lat":"20.481805801391598","lng":"-100.43916702270508"},{"id":"1855","clave_entidad":"22","nombre_entidad":"Queretaro","clave_municipio":"7","nombre_municipio":"Ezequiel Montes","clave_inegi":"22007","nombre_inegi":"","minx":"-99.9706","miny":"20.5456","maxx":"-99.7389","maxy":"20.7583","lat":"20.651944160461426","lng":"-99.85472488403319"},{"id":"1856","clave_entidad":"22","nombre_entidad":"Queretaro","clave_municipio":"8","nombre_municipio":"Huimilpan","clave_inegi":"22008","nombre_inegi":"","minx":"-100.4","miny":"20.2928","maxx":"-100.23","maxy":"20.5467","lat":"20.41972255706787","lng":"-100.31500244140625"},{"id":"1857","clave_entidad":"22","nombre_entidad":"Queretaro","clave_municipio":"9","nombre_municipio":"Jalpan de Serra","clave_inegi":"22009","nombre_inegi":"","minx":"-99.5361","miny":"21.1242","maxx":"-99.1492","maxy":"21.6514","lat":"21.387777328491207","lng":"-99.3426399230957"},{"id":"1858","clave_entidad":"22","nombre_entidad":"Queretaro","clave_municipio":"10","nombre_municipio":"Landa de Matamoros","clave_inegi":"22010","nombre_inegi":"","minx":"-99.3481","miny":"21.1436","maxx":"-99.0522","maxy":"21.4231","lat":"21.283333778381348","lng":"-99.20013809204103"},{"id":"1859","clave_entidad":"22","nombre_entidad":"Queretaro","clave_municipio":"11","nombre_municipio":"El Marques","clave_inegi":"22011","nombre_inegi":"","minx":"-100.404","miny":"20.5094","maxx":"-100.184","maxy":"20.9611","lat":"20.73527812957764","lng":"-100.2944450378418"},{"id":"1860","clave_entidad":"22","nombre_entidad":"Queretaro","clave_municipio":"12","nombre_municipio":"Pedro Escobedo","clave_inegi":"22012","nombre_inegi":"","minx":"-100.291","miny":"20.385","maxx":"-100.077","maxy":"20.5669","lat":"20.47597217559814","lng":"-100.18389129638673"},{"id":"1861","clave_entidad":"22","nombre_entidad":"Queretaro","clave_municipio":"13","nombre_municipio":"Pe","clave_inegi":"22013","nombre_inegi":"","minx":"-100.012","miny":"20.9525","maxx":"-99.6811","maxy":"21.2247","lat":"21.08861064910889","lng":"-99.8466682434082"},{"id":"1862","clave_entidad":"22","nombre_entidad":"Queretaro","clave_municipio":"14","nombre_municipio":"Queretaro","clave_inegi":"22014","nombre_inegi":"","minx":"-100.587","miny":"20.5281","maxx":"-100.331","maxy":"20.9181","lat":"20.723055839538574","lng":"-100.4587516784668"},{"id":"1863","clave_entidad":"22","nombre_entidad":"Queretaro","clave_municipio":"15","nombre_municipio":"San Joaquin","clave_inegi":"22015","nombre_inegi":"","minx":"-99.6703","miny":"20.8892","maxx":"-99.3967","maxy":"21.075","lat":"20.982083320617676","lng":"-99.53347396850586"},{"id":"1864","clave_entidad":"22","nombre_entidad":"Queretaro","clave_municipio":"16","nombre_municipio":"San Juan del Rio","clave_inegi":"22016","nombre_inegi":"","minx":"-100.157","miny":"20.2136","maxx":"-99.8525","maxy":"20.5425","lat":"20.378055572509766","lng":"-100.0048599243164"},{"id":"1865","clave_entidad":"22","nombre_entidad":"Queretaro","clave_municipio":"17","nombre_municipio":"Tequisquiapan","clave_inegi":"22017","nombre_inegi":"","minx":"-100.063","miny":"20.4381","maxx":"-99.8394","maxy":"20.6378","lat":"20.537916183471676","lng":"-99.95125198364258"},{"id":"1866","clave_entidad":"22","nombre_entidad":"Queretaro","clave_municipio":"18","nombre_municipio":"Toliman","clave_inegi":"22018","nombre_inegi":"","minx":"-100.082","miny":"20.7575","maxx":"-99.8031","maxy":"21.0689","lat":"20.913194656372067","lng":"-99.9423599243164"}]