[{"id":"25","clave_entidad":"25","nombre_entidad":"Sinaloa","clave_municipio":"0","nombre_municipio":"todo el estado","clave_inegi":"25000","nombre_inegi":"","minx":"-109.403","miny":"22.5142","maxx":"-105.393","maxy":"27.0322","lat":"24.773194313049316","lng":"-107.39791870117189"},{"id":"1935","clave_entidad":"25","nombre_entidad":"Sinaloa","clave_municipio":"1","nombre_municipio":"Ahome","clave_inegi":"25001","nombre_inegi":"","minx":"-109.403","miny":"25.4842","maxx":"-108.759","maxy":"26.3986","lat":"25.94138908386231","lng":"-109.08111190795897"},{"id":"1936","clave_entidad":"25","nombre_entidad":"Sinaloa","clave_municipio":"2","nombre_municipio":"Angostura","clave_inegi":"25002","nombre_inegi":"","minx":"-108.341","miny":"24.8233","maxx":"-107.91","maxy":"25.4483","lat":"25.135833740234375","lng":"-108.12541961669922"},{"id":"1937","clave_entidad":"25","nombre_entidad":"Sinaloa","clave_municipio":"3","nombre_municipio":"Badiraguato","clave_inegi":"25003","nombre_inegi":"","minx":"-107.737","miny":"25.0942","maxx":"-107.025","maxy":"26.1314","lat":"25.612777709960938","lng":"-107.3812484741211"},{"id":"1938","clave_entidad":"25","nombre_entidad":"Sinaloa","clave_municipio":"4","nombre_municipio":"Concordia","clave_inegi":"25004","nombre_inegi":"","minx":"-106.213","miny":"23.1058","maxx":"-105.723","maxy":"23.7583","lat":"23.432083129882812","lng":"-105.96805572509767"},{"id":"1939","clave_entidad":"25","nombre_entidad":"Sinaloa","clave_municipio":"5","nombre_municipio":"Cosala","clave_inegi":"25005","nombre_inegi":"","minx":"-107.04","miny":"24.2236","maxx":"-106.474","maxy":"24.8003","lat":"24.51194477081299","lng":"-106.75680541992189"},{"id":"1940","clave_entidad":"25","nombre_entidad":"Sinaloa","clave_municipio":"6","nombre_municipio":"Culiacan","clave_inegi":"25006","nombre_inegi":"","minx":"-107.717","miny":"24.0864","maxx":"-106.944","maxy":"25.2606","lat":"24.67347240447998","lng":"-107.33041763305664"},{"id":"1941","clave_entidad":"25","nombre_entidad":"Sinaloa","clave_municipio":"7","nombre_municipio":"Choix","clave_inegi":"25007","nombre_inegi":"","minx":"-108.617","miny":"26.3011","maxx":"-108.009","maxy":"27.0322","lat":"26.666666984558105","lng":"-108.31277847290038"},{"id":"1942","clave_entidad":"25","nombre_entidad":"Sinaloa","clave_municipio":"8","nombre_municipio":"Elota","clave_inegi":"25008","nombre_inegi":"","minx":"-107.047","miny":"23.7903","maxx":"-106.613","maxy":"24.2592","lat":"24.024722099304203","lng":"-106.82999801635742"},{"id":"1943","clave_entidad":"25","nombre_entidad":"Sinaloa","clave_municipio":"9","nombre_municipio":"Escuinapa","clave_inegi":"25009","nombre_inegi":"","minx":"-105.935","miny":"22.5142","maxx":"-105.44","maxy":"22.9233","lat":"22.71875","lng":"-105.68722152709962"},{"id":"1944","clave_entidad":"25","nombre_entidad":"Sinaloa","clave_municipio":"10","nombre_municipio":"El Fuerte","clave_inegi":"25010","nombre_inegi":"","minx":"-109.029","miny":"25.8211","maxx":"-108.288","maxy":"26.6114","lat":"26.216250419616703","lng":"-108.65847396850586"},{"id":"1945","clave_entidad":"25","nombre_entidad":"Sinaloa","clave_municipio":"11","nombre_municipio":"Guasave","clave_inegi":"25011","nombre_inegi":"","minx":"-108.857","miny":"25.2042","maxx":"-108.189","maxy":"25.8267","lat":"25.515416145324707","lng":"-108.52333450317383"},{"id":"1946","clave_entidad":"25","nombre_entidad":"Sinaloa","clave_municipio":"12","nombre_municipio":"Mazatlan","clave_inegi":"25012","nombre_inegi":"","minx":"-106.611","miny":"23.0872","maxx":"-105.968","maxy":"23.8214","lat":"23.454305648803707","lng":"-106.28944396972656"},{"id":"1947","clave_entidad":"25","nombre_entidad":"Sinaloa","clave_municipio":"13","nombre_municipio":"Mocorito","clave_inegi":"25013","nombre_inegi":"","minx":"-108.024","miny":"24.9289","maxx":"-107.519","maxy":"25.7514","lat":"25.34013843536377","lng":"-107.77166748046875"},{"id":"1948","clave_entidad":"25","nombre_entidad":"Sinaloa","clave_municipio":"14","nombre_municipio":"Rosario","clave_inegi":"25014","nombre_inegi":"","minx":"-106.235","miny":"22.8239","maxx":"-105.393","maxy":"23.28","lat":"23.05194473266602","lng":"-105.81388854980469"},{"id":"1949","clave_entidad":"25","nombre_entidad":"Sinaloa","clave_municipio":"15","nombre_municipio":"Salvador Alvarado","clave_inegi":"25015","nombre_inegi":"","minx":"-108.275","miny":"25.1742","maxx":"-107.895","maxy":"25.6064","lat":"25.39027690887451","lng":"-108.08513641357423"},{"id":"1950","clave_entidad":"25","nombre_entidad":"Sinaloa","clave_municipio":"16","nombre_municipio":"San Ignacio","clave_inegi":"25016","nombre_inegi":"","minx":"-106.823","miny":"23.4881","maxx":"-105.968","maxy":"24.3594","lat":"23.92374992370606","lng":"-106.39583206176758"},{"id":"1951","clave_entidad":"25","nombre_entidad":"Sinaloa","clave_municipio":"17","nombre_municipio":"Sinaloa","clave_inegi":"25017","nombre_inegi":"","minx":"-108.76","miny":"25.6058","maxx":"-107.507","maxy":"26.3339","lat":"25.969861030578613","lng":"-108.13375091552733"},{"id":"1952","clave_entidad":"25","nombre_entidad":"Sinaloa","clave_municipio":"18","nombre_municipio":"Navolato","clave_inegi":"25018","nombre_inegi":"","minx":"-108.065","miny":"24.5006","maxx":"-107.453","maxy":"25.02","lat":"24.760277748107907","lng":"-107.75902557373047"}]