[{"id":"32","clave_entidad":"32","nombre_entidad":"Zacatecas","clave_municipio":"0","nombre_municipio":"todo el estado","clave_inegi":"32000","nombre_inegi":"","minx":"-104.353","miny":"21.0642","maxx":"-100.755","maxy":"25.0794","lat":"23.071805953979496","lng":"-102.55361175537111"},{"id":"2463","clave_entidad":"32","nombre_entidad":"Zacatecas","clave_municipio":"1","nombre_municipio":"Apozol","clave_inegi":"32001","nombre_inegi":"","minx":"-103.176","miny":"21.3961","maxx":"-102.941","maxy":"21.5236","lat":"21.45986080169678","lng":"-103.05847167968751"},{"id":"2464","clave_entidad":"32","nombre_entidad":"Zacatecas","clave_municipio":"2","nombre_municipio":"Apulco","clave_inegi":"32002","nombre_inegi":"","minx":"-102.732","miny":"21.3531","maxx":"-102.638","maxy":"21.5514","lat":"21.452222824096683","lng":"-102.68527603149414"},{"id":"2465","clave_entidad":"32","nombre_entidad":"Zacatecas","clave_municipio":"3","nombre_municipio":"Atolinga","clave_inegi":"32003","nombre_inegi":"","minx":"-103.534","miny":"21.6564","maxx":"-103.354","maxy":"21.8633","lat":"21.75986099243164","lng":"-103.44402694702147"},{"id":"2466","clave_entidad":"32","nombre_entidad":"Zacatecas","clave_municipio":"4","nombre_municipio":"Benito Juarez","clave_inegi":"32004","nombre_inegi":"","minx":"-103.657","miny":"21.4178","maxx":"-103.477","maxy":"21.5683","lat":"21.493055343627926","lng":"-103.56694412231445"},{"id":"2467","clave_entidad":"32","nombre_entidad":"Zacatecas","clave_municipio":"5","nombre_municipio":"Calera","clave_inegi":"32005","nombre_inegi":"","minx":"-102.874","miny":"22.8622","maxx":"-102.609","maxy":"23.1086","lat":"22.985417366027832","lng":"-102.74152755737305"},{"id":"2468","clave_entidad":"32","nombre_entidad":"Zacatecas","clave_municipio":"6","nombre_municipio":"Ca","clave_inegi":"32006","nombre_inegi":"","minx":"-102.864","miny":"23.5103","maxx":"-102.577","maxy":"23.6383","lat":"23.57430648803711","lng":"-102.72041702270509"},{"id":"2469","clave_entidad":"32","nombre_entidad":"Zacatecas","clave_municipio":"7","nombre_municipio":"Concepcion del Oro","clave_inegi":"32007","nombre_inegi":"","minx":"-101.455","miny":"24.1317","maxx":"-101.027","maxy":"24.7756","lat":"24.453610420227047","lng":"-101.24083328247069"},{"id":"2470","clave_entidad":"32","nombre_entidad":"Zacatecas","clave_municipio":"8","nombre_municipio":"Cuauhtemoc","clave_inegi":"32008","nombre_inegi":"","minx":"-102.527","miny":"22.3464","maxx":"-102.274","maxy":"22.5619","lat":"22.454167366027832","lng":"-102.40055465698242"},{"id":"2471","clave_entidad":"32","nombre_entidad":"Zacatecas","clave_municipio":"9","nombre_municipio":"Chalchihuites","clave_inegi":"32009","nombre_inegi":"","minx":"-104.027","miny":"23.3156","maxx":"-103.733","maxy":"23.5831","lat":"23.449305534362797","lng":"-103.88000106811523"},{"id":"2472","clave_entidad":"32","nombre_entidad":"Zacatecas","clave_municipio":"10","nombre_municipio":"Fresnillo","clave_inegi":"32010","nombre_inegi":"","minx":"-103.51","miny":"22.8622","maxx":"-102.51","maxy":"23.5789","lat":"23.220555305480957","lng":"-103.00986099243164"},{"id":"2473","clave_entidad":"32","nombre_entidad":"Zacatecas","clave_municipio":"11","nombre_municipio":"Trinidad Garcia de la Cadena","clave_inegi":"32011","nombre_inegi":"","minx":"-103.603","miny":"21.135","maxx":"-103.415","maxy":"21.3064","lat":"21.220694541931152","lng":"-103.50888824462889"},{"id":"2474","clave_entidad":"32","nombre_entidad":"Zacatecas","clave_municipio":"12","nombre_municipio":"Genaro Codina","clave_inegi":"32012","nombre_inegi":"","minx":"-102.676","miny":"22.3103","maxx":"-102.416","maxy":"22.6106","lat":"22.460416793823246","lng":"-102.54569625854491"},{"id":"2475","clave_entidad":"32","nombre_entidad":"Zacatecas","clave_municipio":"13","nombre_municipio":"General Enrique Estrada","clave_inegi":"32013","nombre_inegi":"","minx":"-102.889","miny":"22.9672","maxx":"-102.686","maxy":"23.0667","lat":"23.016944885253906","lng":"-102.78722381591795"},{"id":"2476","clave_entidad":"32","nombre_entidad":"Zacatecas","clave_municipio":"14","nombre_municipio":"General Francisco R. Murguia","clave_inegi":"32014","nombre_inegi":"","minx":"-103.235","miny":"23.8817","maxx":"-102.298","maxy":"24.4364","lat":"24.159027099609375","lng":"-102.76638793945311"},{"id":"2477","clave_entidad":"32","nombre_entidad":"Zacatecas","clave_municipio":"15","nombre_municipio":"El Plateado de Joaquin Amaro","clave_inegi":"32015","nombre_inegi":"","minx":"-103.144","miny":"21.8928","maxx":"-102.947","maxy":"22.1247","lat":"22.00874996185303","lng":"-103.04583358764648"},{"id":"2478","clave_entidad":"32","nombre_entidad":"Zacatecas","clave_municipio":"16","nombre_municipio":"General Panfilo Natera","clave_inegi":"32016","nombre_inegi":"","minx":"-102.218","miny":"22.5275","maxx":"-101.954","maxy":"22.8169","lat":"22.672222137451172","lng":"-102.0861129760742"},{"id":"2479","clave_entidad":"32","nombre_entidad":"Zacatecas","clave_municipio":"17","nombre_municipio":"Guadalupe","clave_inegi":"32017","nombre_inegi":"","minx":"-102.651","miny":"22.5514","maxx":"-102.207","maxy":"22.99","lat":"22.77069473266602","lng":"-102.42930603027342"},{"id":"2480","clave_entidad":"32","nombre_entidad":"Zacatecas","clave_municipio":"18","nombre_municipio":"Huanusco","clave_inegi":"32018","nombre_inegi":"","minx":"-103.072","miny":"21.6822","maxx":"-102.778","maxy":"21.8444","lat":"21.763333320617676","lng":"-102.92499923706056"},{"id":"2481","clave_entidad":"32","nombre_entidad":"Zacatecas","clave_municipio":"19","nombre_municipio":"Jalpa","clave_inegi":"32019","nombre_inegi":"","minx":"-103.176","miny":"21.4911","maxx":"-102.813","maxy":"21.7386","lat":"21.614861488342285","lng":"-102.99430465698241"},{"id":"2482","clave_entidad":"32","nombre_entidad":"Zacatecas","clave_municipio":"20","nombre_municipio":"Jerez","clave_inegi":"32020","nombre_inegi":"","minx":"-103.224","miny":"22.5114","maxx":"-102.782","maxy":"22.9128","lat":"22.712082862854004","lng":"-103.00291442871092"},{"id":"2483","clave_entidad":"32","nombre_entidad":"Zacatecas","clave_municipio":"21","nombre_municipio":"Jimenez del Teul","clave_inegi":"32021","nombre_inegi":"","minx":"-104.14","miny":"22.9794","maxx":"-103.663","maxy":"23.3161","lat":"23.147777557373047","lng":"-103.90180206298828"},{"id":"2484","clave_entidad":"32","nombre_entidad":"Zacatecas","clave_municipio":"22","nombre_municipio":"Juan Aldama","clave_inegi":"32022","nombre_inegi":"","minx":"-103.428","miny":"24.1119","maxx":"-103.243","maxy":"24.3694","lat":"24.24069404602051","lng":"-103.33541488647461"},{"id":"2485","clave_entidad":"32","nombre_entidad":"Zacatecas","clave_municipio":"23","nombre_municipio":"Juchipila","clave_inegi":"32023","nombre_inegi":"","minx":"-103.236","miny":"21.32","maxx":"-103.001","maxy":"21.4414","lat":"21.38069438934326","lng":"-103.11861038208008"},{"id":"2486","clave_entidad":"32","nombre_entidad":"Zacatecas","clave_municipio":"24","nombre_municipio":"Loreto","clave_inegi":"32024","nombre_inegi":"","minx":"-102.136","miny":"22.1736","maxx":"-101.799","maxy":"22.3525","lat":"22.263055801391598","lng":"-101.96749877929688"},{"id":"2487","clave_entidad":"32","nombre_entidad":"Zacatecas","clave_municipio":"25","nombre_municipio":"Luis Moya","clave_inegi":"32025","nombre_inegi":"","minx":"-102.297","miny":"22.3697","maxx":"-102.125","maxy":"22.5117","lat":"22.440694808959957","lng":"-102.21069717407227"},{"id":"2488","clave_entidad":"32","nombre_entidad":"Zacatecas","clave_municipio":"26","nombre_municipio":"Mazapil","clave_inegi":"32026","nombre_inegi":"","minx":"-102.616","miny":"23.8103","maxx":"-101.249","maxy":"25.0425","lat":"24.426388740539547","lng":"-101.93264007568361"},{"id":"2489","clave_entidad":"32","nombre_entidad":"Zacatecas","clave_municipio":"27","nombre_municipio":"Melchor Ocampo","clave_inegi":"32027","nombre_inegi":"","minx":"-102.309","miny":"24.7097","maxx":"-101.606","maxy":"25.0794","lat":"24.894583702087402","lng":"-101.95777893066406"},{"id":"2490","clave_entidad":"32","nombre_entidad":"Zacatecas","clave_municipio":"28","nombre_municipio":"Mezquital del Oro","clave_inegi":"32028","nombre_inegi":"","minx":"-103.432","miny":"21.0733","maxx":"-103.247","maxy":"21.3369","lat":"21.20513916015625","lng":"-103.33930587768555"},{"id":"2491","clave_entidad":"32","nombre_entidad":"Zacatecas","clave_municipio":"29","nombre_municipio":"Miguel Auza","clave_inegi":"32029","nombre_inegi":"","minx":"-103.695","miny":"23.9983","maxx":"-103.274","maxy":"24.3364","lat":"24.167361259460453","lng":"-103.48416900634764"},{"id":"2492","clave_entidad":"32","nombre_entidad":"Zacatecas","clave_municipio":"30","nombre_municipio":"Momax","clave_inegi":"32030","nombre_inegi":"","minx":"-103.379","miny":"21.8933","maxx":"-103.159","maxy":"21.9803","lat":"21.936805725097656","lng":"-103.26889038085938"},{"id":"2493","clave_entidad":"32","nombre_entidad":"Zacatecas","clave_municipio":"31","nombre_municipio":"Monte Escobedo","clave_inegi":"32031","nombre_inegi":"","minx":"-103.639","miny":"22.1297","maxx":"-103.265","maxy":"22.6472","lat":"22.38847255706787","lng":"-103.45194244384767"},{"id":"2494","clave_entidad":"32","nombre_entidad":"Zacatecas","clave_municipio":"32","nombre_municipio":"Morelos","clave_inegi":"32032","nombre_inegi":"","minx":"-102.718","miny":"22.7986","maxx":"-102.59","maxy":"22.9283","lat":"22.86347198486328","lng":"-102.65402984619139"},{"id":"2495","clave_entidad":"32","nombre_entidad":"Zacatecas","clave_municipio":"33","nombre_municipio":"Moyahua de Estrada","clave_inegi":"32033","nombre_inegi":"","minx":"-103.281","miny":"21.0642","maxx":"-103.076","maxy":"21.3269","lat":"21.195555686950687","lng":"-103.17861175537111"},{"id":"2496","clave_entidad":"32","nombre_entidad":"Zacatecas","clave_municipio":"34","nombre_municipio":"Nochistlan de Mejia","clave_inegi":"32034","nombre_inegi":"","minx":"-103.041","miny":"21.2339","maxx":"-102.7","maxy":"21.6247","lat":"21.42930507659912","lng":"-102.87041854858397"},{"id":"2497","clave_entidad":"32","nombre_entidad":"Zacatecas","clave_municipio":"35","nombre_municipio":"Noria de Angeles","clave_inegi":"32035","nombre_inegi":"","minx":"-102.07","miny":"22.3","maxx":"-101.78","maxy":"22.4583","lat":"22.37916660308838","lng":"-101.92486190795897"},{"id":"2498","clave_entidad":"32","nombre_entidad":"Zacatecas","clave_municipio":"36","nombre_municipio":"Ojocaliente","clave_inegi":"32036","nombre_inegi":"","minx":"-102.416","miny":"22.4258","maxx":"-102.044","maxy":"22.7344","lat":"22.580138206481937","lng":"-102.22986221313478"},{"id":"2499","clave_entidad":"32","nombre_entidad":"Zacatecas","clave_municipio":"37","nombre_municipio":"Panuco","clave_inegi":"32037","nombre_inegi":"","minx":"-102.643","miny":"22.8742","maxx":"-102.254","maxy":"23.0953","lat":"22.984722137451172","lng":"-102.44805526733398"},{"id":"2500","clave_entidad":"32","nombre_entidad":"Zacatecas","clave_municipio":"38","nombre_municipio":"Pinos","clave_inegi":"32038","nombre_inegi":"","minx":"-101.804","miny":"21.8208","maxx":"-101.294","maxy":"22.7325","lat":"22.276666641235348","lng":"-101.5493049621582"},{"id":"2501","clave_entidad":"32","nombre_entidad":"Zacatecas","clave_municipio":"39","nombre_municipio":"Rio Grande","clave_inegi":"32039","nombre_inegi":"","minx":"-103.34","miny":"23.5656","maxx":"-102.724","maxy":"23.9981","lat":"23.781805992126465","lng":"-103.0320816040039"},{"id":"2502","clave_entidad":"32","nombre_entidad":"Zacatecas","clave_municipio":"40","nombre_municipio":"Sain Alto","clave_inegi":"32040","nombre_inegi":"","minx":"-103.442","miny":"23.4444","maxx":"-102.961","maxy":"23.7436","lat":"23.594027519226074","lng":"-103.20111083984375"},{"id":"2503","clave_entidad":"32","nombre_entidad":"Zacatecas","clave_municipio":"41","nombre_municipio":"El Salvador","clave_inegi":"32041","nombre_inegi":"","minx":"-101.026","miny":"24.3253","maxx":"-100.755","maxy":"24.5794","lat":"24.45236110687256","lng":"-100.8905563354492"},{"id":"2504","clave_entidad":"32","nombre_entidad":"Zacatecas","clave_municipio":"42","nombre_municipio":"Sombrerete","clave_inegi":"32042","nombre_inegi":"","minx":"-103.864","miny":"23.0669","maxx":"-103.332","maxy":"24.0114","lat":"23.53916645050049","lng":"-103.59805679321289"},{"id":"2505","clave_entidad":"32","nombre_entidad":"Zacatecas","clave_municipio":"43","nombre_municipio":"Susticacan","clave_inegi":"32043","nombre_inegi":"","minx":"-103.24","miny":"22.5783","maxx":"-103.098","maxy":"22.6622","lat":"22.620277404785156","lng":"-103.16875076293945"},{"id":"2506","clave_entidad":"32","nombre_entidad":"Zacatecas","clave_municipio":"44","nombre_municipio":"Tabasco","clave_inegi":"32044","nombre_inegi":"","minx":"-103.017","miny":"21.8219","maxx":"-102.865","maxy":"22.0203","lat":"21.92111110687256","lng":"-102.94083404541017"},{"id":"2507","clave_entidad":"32","nombre_entidad":"Zacatecas","clave_municipio":"45","nombre_municipio":"Tepechitlan","clave_inegi":"32045","nombre_inegi":"","minx":"-103.497","miny":"21.5214","maxx":"-103.167","maxy":"21.7064","lat":"21.613888740539547","lng":"-103.33208465576172"},{"id":"2508","clave_entidad":"32","nombre_entidad":"Zacatecas","clave_municipio":"46","nombre_municipio":"Tepetongo","clave_inegi":"32046","nombre_inegi":"","minx":"-103.241","miny":"22.2842","maxx":"-103.006","maxy":"22.5928","lat":"22.438471794128418","lng":"-103.12319564819336"},{"id":"2509","clave_entidad":"32","nombre_entidad":"Zacatecas","clave_municipio":"47","nombre_municipio":"Teul de Gonzalez Ortega","clave_inegi":"32047","nombre_inegi":"","minx":"-103.714","miny":"21.2103","maxx":"-103.264","maxy":"21.4925","lat":"21.351388931274418","lng":"-103.48888778686523"},{"id":"2510","clave_entidad":"32","nombre_entidad":"Zacatecas","clave_municipio":"48","nombre_municipio":"Tlaltenango de Sanchez Roman","clave_inegi":"32048","nombre_inegi":"","minx":"-103.41","miny":"21.6411","maxx":"-103.093","maxy":"21.9072","lat":"21.774167060852047","lng":"-103.25152969360353"},{"id":"2511","clave_entidad":"32","nombre_entidad":"Zacatecas","clave_municipio":"49","nombre_municipio":"Valparaiso","clave_inegi":"32049","nombre_inegi":"","minx":"-104.353","miny":"22.3647","maxx":"-103.238","maxy":"23.1475","lat":"22.756110191345215","lng":"-103.79541778564453"},{"id":"2512","clave_entidad":"32","nombre_entidad":"Zacatecas","clave_municipio":"50","nombre_municipio":"Vetagrande","clave_inegi":"32050","nombre_inegi":"","minx":"-102.576","miny":"22.8158","maxx":"-102.384","maxy":"22.9428","lat":"22.879305839538574","lng":"-102.48013687133789"},{"id":"2513","clave_entidad":"32","nombre_entidad":"Zacatecas","clave_municipio":"51","nombre_municipio":"Villa de Cos","clave_inegi":"32051","nombre_inegi":"","minx":"-102.65","miny":"23.0417","maxx":"-101.543","maxy":"23.985","lat":"23.513333320617676","lng":"-102.09638977050781"},{"id":"2514","clave_entidad":"32","nombre_entidad":"Zacatecas","clave_municipio":"52","nombre_municipio":"Villa Garcia","clave_inegi":"32052","nombre_inegi":"","minx":"-102.014","miny":"22.0219","maxx":"-101.787","maxy":"22.2133","lat":"22.11763858795166","lng":"-101.90013885498047"},{"id":"2515","clave_entidad":"32","nombre_entidad":"Zacatecas","clave_municipio":"53","nombre_municipio":"Villa Gonzalez Ortega","clave_inegi":"32053","nombre_inegi":"","minx":"-102.041","miny":"22.4553","maxx":"-101.838","maxy":"22.6453","lat":"22.550277709960938","lng":"-101.93972396850586"},{"id":"2516","clave_entidad":"32","nombre_entidad":"Zacatecas","clave_municipio":"54","nombre_municipio":"Villa Hidalgo","clave_inegi":"32054","nombre_inegi":"","minx":"-101.83","miny":"22.2964","maxx":"-101.653","maxy":"22.4894","lat":"22.392916679382324","lng":"-101.74152755737305"},{"id":"2517","clave_entidad":"32","nombre_entidad":"Zacatecas","clave_municipio":"55","nombre_municipio":"Villanueva","clave_inegi":"32055","nombre_inegi":"","minx":"-103.137","miny":"22.0017","maxx":"-102.671","maxy":"22.6514","lat":"22.32652759552002","lng":"-102.90388870239258"},{"id":"2518","clave_entidad":"32","nombre_entidad":"Zacatecas","clave_municipio":"56","nombre_municipio":"Zacatecas","clave_inegi":"32056","nombre_inegi":"","minx":"-102.829","miny":"22.6472","maxx":"-102.55","maxy":"22.8161","lat":"22.731666564941403","lng":"-102.68958282470703"},{"id":"2519","clave_entidad":"32","nombre_entidad":"Zacatecas","clave_municipio":"57","nombre_municipio":"Trancoso","clave_inegi":"32057","nombre_inegi":"","minx":"-102.398","miny":"22.6933","maxx":"-102.226","maxy":"22.8192","lat":"22.75624942779541","lng":"-102.31208038330078"},{"id":"2520","clave_entidad":"32","nombre_entidad":"Zacatecas","clave_municipio":"58","nombre_municipio":"Santa Maria de la Paz","clave_inegi":"32058","nombre_inegi":"","minx":"-103.496","miny":"21.4625","maxx":"-103.217","maxy":"21.5656","lat":"21.51402759552002","lng":"-103.35652542114258"}]